{
  "version": 0.6,
  "generator": "Overpass API 0.7.62.10 2d4cfc48",
  "osm3s": {
    "timestamp_osm_base": "2026-03-06T09:41:29Z",
    "timestamp_areas_base": "2026-01-23T01:22:35Z",
    "copyright": "The data included in this document is from www.openstreetmap.org. The data is made available under ODbL."
  },
  "elements": [
    {
      "type": "node",
      "id": 9893875,
      "lat": 55.3138856,
      "lon": 10.8035012,
      "tags": {
        "name": "Nyborg",
        "public_transport": "station",
        "railway": "station",
        "railway:ref": "Ng",
        "wheelchair": "yes",
        "wikidata": "Q2460064"
      }
    },
    {
      "type": "node",
      "id": 10282865,
      "lat": 55.5497139,
      "lon": 12.0243564,
      "tags": {
        "name": "Viby Sj",
        "public_transport": "station",
        "railway": "station",
        "railway:ref": "Vy",
        "wheelchair": "yes",
        "wikidata": "Q12343904"
      }
    },
    {
      "type": "node",
      "id": 12705587,
      "lat": 55.8824425,
      "lon": 12.5315085,
      "tags": {
        "name": "Rungsted Kyst",
        "public_transport": "station",
        "railway": "station",
        "railway:ref": "Ru",
        "wikidata": "Q7379866"
      }
    },
    {
      "type": "node",
      "id": 12705592,
      "lat": 55.8527265,
      "lon": 12.5624471,
      "tags": {
        "name": "Vedbæk",
        "public_transport": "station",
        "railway": "halt",
        "railway:ref": "Vb",
        "wikidata": "Q2301970"
      }
    },
    {
      "type": "node",
      "id": 20946305,
      "lat": 55.8076871,
      "lon": 12.4685342,
      "tags": {
        "light_rail": "yes",
        "name": "Holte",
        "operator": "DSB",
        "public_transport": "station",
        "railway": "station",
        "railway:ref": "Hot",
        "station": "light_rail",
        "wikidata": "Q4289870"
      }
    },
    {
      "type": "node",
      "id": 24954656,
      "lat": 55.6648012,
      "lon": 12.4591846,
      "tags": {
        "light_rail": "yes",
        "name": "Rødovre",
        "public_transport": "station",
        "railway": "halt",
        "railway:ref": "Rdo",
        "station": "light_rail",
        "wikidata": "Q1909224",
        "wikimedia_commons": "File:Rødovre Station og Rødovre Port.jpg"
      }
    },
    {
      "type": "node",
      "id": 24960728,
      "lat": 55.7062098,
      "lon": 12.5414024,
      "tags": {
        "light_rail": "yes",
        "name": "Bispebjerg",
        "network": "S-tog",
        "public_transport": "station",
        "railway": "halt",
        "railway:ref": "Bit",
        "station": "light_rail",
        "wikidata": "Q1828988"
      }
    },
    {
      "type": "node",
      "id": 25872825,
      "lat": 55.7517662,
      "lon": 12.5723525,
      "tags": {
        "light_rail": "yes",
        "name": "Charlottenlund",
        "operator": "DSB S-tog",
        "public_transport": "station",
        "railway": "halt",
        "railway:ref": "Ch",
        "station": "light_rail",
        "wheelchair": "yes",
        "wikidata": "Q5086228"
      }
    },
    {
      "type": "node",
      "id": 25872886,
      "lat": 55.7428089,
      "lon": 12.5578091,
      "tags": {
        "light_rail": "yes",
        "name": "Bernstorffsvej",
        "public_transport": "station",
        "railway": "halt",
        "railway:ref": "Bft",
        "station": "light_rail",
        "wikidata": "Q2661351"
      }
    },
    {
      "type": "node",
      "id": 25872941,
      "lat": 55.7812129,
      "lon": 12.4835887,
      "tags": {
        "light_rail": "yes",
        "name": "Sorgenfri",
        "public_transport": "station",
        "railway": "halt",
        "railway:ref": "Sft",
        "station": "light_rail",
        "wikidata": "Q2624457"
      }
    },
    {
      "type": "node",
      "id": 25872951,
      "lat": 55.7961547,
      "lon": 12.4729758,
      "tags": {
        "light_rail": "yes",
        "name": "Virum",
        "public_transport": "station",
        "railway": "halt",
        "railway:ref": "Vir",
        "station": "light_rail",
        "wikidata": "Q1826306"
      }
    },
    {
      "type": "node",
      "id": 26264419,
      "lat": 55.6478757,
      "lon": 12.1319137,
      "tags": {
        "internet_access": "no",
        "name": "Trekroner",
        "operator": "DSB",
        "public_transport": "station",
        "railway": "halt",
        "railway:ref": "Trk",
        "wikidata": "Q12339746"
      }
    },
    {
      "type": "node",
      "id": 28321802,
      "lat": 55.7618855,
      "lon": 12.5215091,
      "tags": {
        "light_rail": "yes",
        "name": "Jægersborg",
        "public_transport": "station",
        "railway": "station",
        "railway:ref": "Jæt",
        "ref": "8600674",
        "ref_name": "Jægersborg St.",
        "station": "light_rail",
        "wheelchair": "yes",
        "wikidata": "Q1953807",
        "wikipedia": "da:Jægersborg Station"
      }
    },
    {
      "type": "node",
      "id": 28321846,
      "lat": 55.7739528,
      "lon": 12.5055467,
      "tags": {
        "name": "Lyngby Lokal",
        "public_transport": "station",
        "railway": "halt",
        "railway:ref": "Lyl",
        "station": "light_rail",
        "train": "yes",
        "wikidata": "Q12325241"
      }
    },
    {
      "type": "node",
      "id": 28321897,
      "lat": 55.7849627,
      "lon": 12.4973638,
      "tags": {
        "name": "Fuglevad",
        "operator": "Lokalbanen",
        "public_transport": "station",
        "railway": "station",
        "railway:ref": "Fgv",
        "station": "light_rail",
        "train": "yes",
        "wikidata": "Q12313148"
      }
    },
    {
      "type": "node",
      "id": 28321923,
      "lat": 55.793725,
      "lon": 12.500822,
      "tags": {
        "name": "Brede",
        "public_transport": "station",
        "railway": "halt",
        "railway:ref": "Bre",
        "station": "light_rail",
        "train": "yes",
        "wikidata": "Q12304303"
      }
    },
    {
      "type": "node",
      "id": 28321940,
      "lat": 55.799759,
      "lon": 12.5097837,
      "tags": {
        "name": "Ørholm",
        "public_transport": "station",
        "railway": "station",
        "railway:ref": "Ørh",
        "station": "light_rail",
        "train": "yes",
        "wheelchair": "yes",
        "wikidata": "Q12342048"
      }
    },
    {
      "type": "node",
      "id": 28321948,
      "lat": 55.8020557,
      "lon": 12.5196228,
      "tags": {
        "light_rail": "yes",
        "name": "Ravnholm",
        "public_transport": "station",
        "railway": "halt",
        "railway:ref": "Rvh",
        "station": "light_rail",
        "wikidata": "Q12332992"
      }
    },
    {
      "type": "node",
      "id": 30148307,
      "lat": 54.7598004,
      "lon": 11.8354471,
      "tags": {
        "name": "Øster Toreby",
        "public_transport": "station",
        "railway": "halt",
        "railway:ref": "Øto"
      }
    },
    {
      "type": "node",
      "id": 30148363,
      "lat": 54.7741229,
      "lon": 11.7649882,
      "tags": {
        "name": "Grænge",
        "public_transport": "station",
        "railway": "station",
        "railway:ref": "Grg",
        "wikidata": "Q12314441"
      }
    },
    {
      "type": "node",
      "id": 30148436,
      "lat": 54.7965382,
      "lon": 11.6350782,
      "tags": {
        "name": "Sakskøbing",
        "public_transport": "station",
        "railway": "station",
        "railway:ref": "Sx",
        "wikidata": "Q12334364"
      }
    },
    {
      "type": "node",
      "id": 30148613,
      "lat": 54.7850772,
      "lon": 11.3721324,
      "tags": {
        "name": "Ryde",
        "public_transport": "station",
        "railway": "station",
        "railway:ref": "Ryd",
        "wikidata": "Q12334025"
      }
    },
    {
      "type": "node",
      "id": 30148668,
      "lat": 54.8111016,
      "lon": 11.2703089,
      "tags": {
        "name": "Søllested",
        "public_transport": "station",
        "railway": "station",
        "railway:ref": "Søl",
        "wikidata": "Q12338336"
      }
    },
    {
      "type": "node",
      "id": 30148701,
      "lat": 54.8289954,
      "lon": 11.2151514,
      "tags": {
        "name": "Avnede",
        "public_transport": "station",
        "railway": "halt",
        "railway:ref": "Avd",
        "wikidata": "Q12302554"
      }
    },
    {
      "type": "node",
      "id": 30149006,
      "lat": 54.8334648,
      "lon": 11.1381304,
      "tags": {
        "name": "Nakskov",
        "public_transport": "station",
        "railway": "station",
        "railway:ref": "Nsk",
        "wheelchair": "yes",
        "wikidata": "Q3442416"
      }
    },
    {
      "type": "node",
      "id": 30334728,
      "lat": 56.0625363,
      "lon": 12.1363259,
      "tags": {
        "name": "Vejby",
        "public_transport": "station",
        "railway": "station",
        "railway:ref": "Vej",
        "wikidata": "Q12343746"
      }
    },
    {
      "type": "node",
      "id": 30334737,
      "lat": 56.0556907,
      "lon": 12.1626176,
      "tags": {
        "name": "Ørby",
        "public_transport": "station",
        "railway": "halt",
        "railway:ref": "Øbg",
        "wikidata": "Q12342018"
      }
    },
    {
      "type": "node",
      "id": 30334748,
      "lat": 56.0231203,
      "lon": 12.2054546,
      "tags": {
        "name": "Helsinge",
        "public_transport": "station",
        "railway": "station",
        "railway:ref": "Hlg",
        "wikidata": "Q12316163"
      }
    },
    {
      "type": "node",
      "id": 30334754,
      "lat": 56.0096416,
      "lon": 12.2628678,
      "tags": {
        "name": "Duemose",
        "public_transport": "station",
        "railway": "halt",
        "railway:ref": "Dug",
        "wikidata": "Q12309039"
      }
    },
    {
      "type": "node",
      "id": 30334760,
      "lat": 55.9974247,
      "lon": 12.2860904,
      "tags": {
        "name": "Kagerup",
        "public_transport": "station",
        "railway": "station",
        "railway:ref": "Kgg",
        "wikidata": "Q12321032"
      }
    },
    {
      "type": "node",
      "id": 30334762,
      "lat": 55.9872318,
      "lon": 12.3022266,
      "tags": {
        "name": "Gribsø Trinbræt",
        "public_transport": "station",
        "railway": "halt",
        "railway:ref": "Gøg",
        "wikidata": "Q12314353"
      }
    },
    {
      "type": "node",
      "id": 35675305,
      "lat": 54.8217475,
      "lon": 11.4815504,
      "tags": {
        "name": "Merritskov",
        "railway": "halt"
      }
    },
    {
      "type": "node",
      "id": 35675324,
      "lat": 54.8372912,
      "lon": 11.4864515,
      "tags": {
        "name": "Bandholm Havn",
        "railway": "station"
      }
    },
    {
      "type": "node",
      "id": 60123928,
      "lat": 55.9231206,
      "lon": 12.0733664,
      "tags": {
        "name": "Ølsted",
        "public_transport": "station",
        "railway": "station",
        "railway:ref": "Øls",
        "wheelchair": "yes",
        "wikidata": "Q12342006"
      }
    },
    {
      "type": "node",
      "id": 60133347,
      "lat": 56.1316708,
      "lon": 9.0631533,
      "tags": {
        "name": "Hammerum",
        "public_transport": "station",
        "railway": "station",
        "railway:ref": "Hu",
        "wikidata": "Q12315135"
      }
    },
    {
      "type": "node",
      "id": 60133375,
      "lat": 56.1237015,
      "lon": 8.9445421,
      "tags": {
        "name": "Herning Messecenter",
        "public_transport": "station",
        "railway": "halt",
        "railway:ref": "Hrm",
        "wikidata": "Q12316628"
      }
    },
    {
      "type": "node",
      "id": 60133434,
      "lat": 55.9907212,
      "lon": 8.7451105,
      "tags": {
        "name": "Troldhede",
        "public_transport": "station",
        "railway": "halt",
        "railway:ref": "Td",
        "wikidata": "Q4855782"
      }
    },
    {
      "type": "node",
      "id": 60137663,
      "lat": 56.1467708,
      "lon": 9.278635,
      "tags": {
        "name": "Bording",
        "public_transport": "station",
        "railway": "station",
        "railway:ref": "Bg",
        "wikidata": "Q12304121"
      }
    },
    {
      "type": "node",
      "id": 60137665,
      "lat": 56.1253027,
      "lon": 9.0297478,
      "tags": {
        "name": "Birk Centerpark",
        "public_transport": "station",
        "railway": "halt",
        "railway:ref": "Bic",
        "wikidata": "Q12303533"
      }
    },
    {
      "type": "node",
      "id": 60137667,
      "lat": 56.0322903,
      "lon": 8.852003,
      "tags": {
        "internet_access": "no",
        "name": "Kibæk",
        "operator": "GoCollective",
        "public_transport": "station",
        "railway": "station",
        "railway:ref": "Kæ",
        "train": "yes",
        "wheelchair": "limited",
        "wikidata": "Q12321759"
      }
    },
    {
      "type": "node",
      "id": 60314784,
      "lat": 55.3814457,
      "lon": 10.3666312,
      "tags": {
        "name": "Odense Sygehus",
        "public_transport": "station",
        "railway": "halt",
        "railway:ref": "Oss",
        "wikidata": "Q11796080"
      }
    },
    {
      "type": "node",
      "id": 60315250,
      "lat": 55.3696571,
      "lon": 10.377521,
      "tags": {
        "name": "Fruens Bøge",
        "public_transport": "station",
        "railway": "station",
        "railway:ref": "Frs",
        "wheelchair": "yes",
        "wikidata": "Q12313084"
      }
    },
    {
      "type": "node",
      "id": 64634196,
      "lat": 55.358233,
      "lon": 10.3926134,
      "tags": {
        "name": "Hjallese",
        "public_transport": "station",
        "railway": "halt",
        "railway:ref": "Hjs",
        "wikidata": "Q12316853"
      }
    },
    {
      "type": "node",
      "id": 77961686,
      "lat": 55.3301247,
      "lon": 10.4339728,
      "tags": {
        "name": "Højby",
        "public_transport": "station",
        "railway": "station",
        "railway:ref": "Høs",
        "wheelchair": "yes",
        "wikidata": "Q12317748"
      }
    },
    {
      "type": "node",
      "id": 77965123,
      "lat": 55.3012658,
      "lon": 10.4659487,
      "tags": {
        "name": "Årslev",
        "public_transport": "station",
        "railway": "station",
        "railway:ref": "Ås",
        "wikidata": "Q12341870"
      }
    },
    {
      "type": "node",
      "id": 77968486,
      "lat": 55.2833897,
      "lon": 10.4860425,
      "tags": {
        "name": "Pederstrup",
        "public_transport": "station",
        "railway": "halt",
        "railway:ref": "Pds"
      }
    },
    {
      "type": "node",
      "id": 77971212,
      "lat": 55.2388658,
      "lon": 10.4818048,
      "tags": {
        "name": "Ringe",
        "public_transport": "station",
        "railway": "station",
        "railway:ref": "Re",
        "wheelchair": "yes",
        "wikidata": "Q2005410"
      }
    },
    {
      "type": "node",
      "id": 118966600,
      "lat": 54.9351501,
      "lon": 9.397753,
      "tags": {
        "name": "Kliplev",
        "public_transport": "station",
        "railway": "halt",
        "railway:ref": "Kw",
        "wikidata": "Q12322167"
      }
    },
    {
      "type": "node",
      "id": 130861643,
      "lat": 54.8970991,
      "lon": 11.885756,
      "tags": {
        "name": "Nørre Alslev",
        "public_transport": "station",
        "railway": "station",
        "railway:ref": "Nv",
        "wikidata": "Q12329636"
      }
    },
    {
      "type": "node",
      "id": 160052674,
      "lat": 55.2611533,
      "lon": 11.8489455,
      "tags": {
        "name": "Holme-Olstrup",
        "public_transport": "station",
        "railway": "station",
        "railway:ref": "Ol",
        "wikidata": "Q12317118"
      }
    },
    {
      "type": "node",
      "id": 242931167,
      "lat": 57.2702469,
      "lon": 9.9429985,
      "tags": {
        "name": "Brønderslev",
        "public_transport": "station",
        "railway": "station",
        "railway:ref": "Bl",
        "wheelchair": "yes",
        "wikidata": "Q12304567"
      }
    },
    {
      "type": "node",
      "id": 252627702,
      "lat": 57.4804343,
      "lon": 9.9686692,
      "tags": {
        "name": "Vellingshøj",
        "public_transport": "station",
        "railway": "halt",
        "railway:ref": "Vlh",
        "wheelchair": "yes",
        "wikidata": "Q12009247"
      }
    },
    {
      "type": "node",
      "id": 252632187,
      "lat": 56.8362511,
      "lon": 9.8873463,
      "tags": {
        "name": "Skørping",
        "public_transport": "station",
        "railway": "station",
        "railway:ref": "Sø",
        "wikidata": "Q12335980"
      }
    },
    {
      "type": "node",
      "id": 255126147,
      "lat": 56.8920384,
      "lon": 9.843943,
      "tags": {
        "name": "Støvring",
        "public_transport": "station",
        "railway": "halt",
        "railway:ref": "Sr",
        "wikidata": "Q12337636"
      }
    },
    {
      "type": "node",
      "id": 255126148,
      "lat": 57.0078981,
      "lon": 9.8978555,
      "tags": {
        "name": "Skalborg",
        "public_transport": "station",
        "railway": "halt",
        "railway:ref": "Og",
        "wikidata": "Q9337516"
      }
    },
    {
      "type": "node",
      "id": 255126149,
      "lat": 56.7689807,
      "lon": 9.8597954,
      "tags": {
        "name": "Arden",
        "public_transport": "station",
        "railway": "halt",
        "railway:ref": "Ad",
        "wikidata": "Q12302078"
      }
    },
    {
      "type": "node",
      "id": 256675304,
      "lat": 57.4859024,
      "lon": 10.3132975,
      "tags": {
        "name": "Tolne",
        "public_transport": "station",
        "railway": "halt",
        "railway:ref": "To",
        "wikidata": "Q12343235"
      }
    },
    {
      "type": "node",
      "id": 270506611,
      "lat": 56.0593898,
      "lon": 12.0779859,
      "tags": {
        "name": "Tisvildeleje",
        "public_transport": "station",
        "railway": "station",
        "railway:ref": "Tvl",
        "wikidata": "Q12339449"
      }
    },
    {
      "type": "node",
      "id": 270507353,
      "lat": 56.0595256,
      "lon": 12.1172836,
      "tags": {
        "name": "Holløse",
        "public_transport": "station",
        "railway": "halt",
        "railway:ref": "Hog",
        "wikidata": "Q12317108"
      }
    },
    {
      "type": "node",
      "id": 271753998,
      "lat": 55.6522903,
      "lon": 11.2920852,
      "tags": {
        "name": "Svebølle",
        "public_transport": "station",
        "railway": "station",
        "railway:ref": "Se",
        "wikidata": "Q12337866"
      }
    },
    {
      "type": "node",
      "id": 274743942,
      "lat": 55.9473313,
      "lon": 8.4921985,
      "tags": {
        "name": "Skjern",
        "public_transport": "station",
        "railway": "station",
        "railway:ref": "Sj",
        "wheelchair": "yes",
        "wikidata": "Q2803296"
      }
    },
    {
      "type": "node",
      "id": 278651206,
      "lat": 56.2652186,
      "lon": 8.7881565,
      "tags": {
        "name": "Aulum",
        "public_transport": "station",
        "railway": "station",
        "railway:ref": "Uu",
        "wikidata": "Q12302494"
      }
    },
    {
      "type": "node",
      "id": 279575818,
      "lat": 55.9770346,
      "lon": 12.4069464,
      "tags": {
        "name": "Fredensborg",
        "public_transport": "station",
        "railway": "station",
        "railway:ref": "Fd",
        "wikidata": "Q12312492"
      }
    },
    {
      "type": "node",
      "id": 279575829,
      "lat": 55.9812303,
      "lon": 12.4515485,
      "tags": {
        "name": "Langerød",
        "public_transport": "station",
        "railway": "halt",
        "railway:ref": "Lrt",
        "wikidata": "Q12323735"
      }
    },
    {
      "type": "node",
      "id": 279975269,
      "lat": 56.1980169,
      "lon": 8.7690938,
      "tags": {
        "name": "Vildbjerg",
        "operator": "DSB",
        "public_transport": "station",
        "railway": "station",
        "railway:ref": "Id",
        "wikidata": "Q12341006"
      }
    },
    {
      "type": "node",
      "id": 286885624,
      "lat": 55.6233618,
      "lon": 12.3867814,
      "tags": {
        "light_rail": "yes",
        "name": "Vallensbæk",
        "public_transport": "station",
        "railway": "station",
        "railway:ref": "Vlb",
        "station": "light_rail",
        "wikidata": "Q1911746"
      }
    },
    {
      "type": "node",
      "id": 286885763,
      "lat": 55.6209884,
      "lon": 12.4218624,
      "tags": {
        "light_rail": "yes",
        "name": "Brøndby Strand",
        "public_transport": "station",
        "railway": "halt",
        "railway:ref": "Bsa",
        "station": "light_rail",
        "uic_name": "Brøndby Strand St.",
        "uic_ref": "8600766",
        "wheelchair": "yes",
        "wikidata": "Q2191753",
        "wikipedia": "da:Brøndby Strand Station"
      }
    },
    {
      "type": "node",
      "id": 286885968,
      "lat": 55.6256622,
      "lon": 12.4555838,
      "tags": {
        "light_rail": "yes",
        "name": "Avedøre",
        "public_transport": "station",
        "railway": "halt",
        "railway:ref": "Avø",
        "station": "light_rail",
        "wikidata": "Q2705593"
      }
    },
    {
      "type": "node",
      "id": 286886106,
      "lat": 55.6294229,
      "lon": 12.483656,
      "tags": {
        "light_rail": "yes",
        "name": "Friheden",
        "public_transport": "station",
        "railway": "halt",
        "railway:ref": "Frh",
        "station": "light_rail",
        "wheelchair": "yes",
        "wikidata": "Q2287496"
      }
    },
    {
      "type": "node",
      "id": 286886137,
      "lat": 55.6397684,
      "lon": 12.4998659,
      "tags": {
        "light_rail": "yes",
        "name": "Åmarken",
        "public_transport": "station",
        "railway": "station",
        "railway:ref": "Åm",
        "station": "light_rail",
        "wheelchair": "yes",
        "wikidata": "Q2796986"
      }
    },
    {
      "type": "node",
      "id": 286886199,
      "lat": 55.6515213,
      "lon": 12.5267123,
      "tags": {
        "light_rail": "yes",
        "name": "Sjælør",
        "public_transport": "station",
        "railway": "halt",
        "railway:ref": "Sjæ",
        "station": "light_rail",
        "wikidata": "Q2200260"
      }
    },
    {
      "type": "node",
      "id": 286886246,
      "lat": 55.6548839,
      "lon": 12.5376084,
      "tags": {
        "light_rail": "yes",
        "name": "Sydhavn",
        "public_transport": "station",
        "railway": "halt",
        "railway:ref": "Syv",
        "station": "light_rail",
        "wikidata": "Q2223116"
      }
    },
    {
      "type": "node",
      "id": 286999329,
      "lat": 55.5979984,
      "lon": 12.3340961,
      "tags": {
        "light_rail": "yes",
        "name": "Hundige",
        "public_transport": "station",
        "railway": "station",
        "railway:ref": "Und",
        "station": "light_rail",
        "wikidata": "Q2793149"
      }
    },
    {
      "type": "node",
      "id": 287043264,
      "lat": 55.613379,
      "lon": 12.3578947,
      "tags": {
        "light_rail": "yes",
        "name": "Ishøj",
        "public_transport": "station",
        "railway": "halt",
        "railway:ref": "Ih",
        "station": "light_rail",
        "wikidata": "Q2277021"
      }
    },
    {
      "type": "node",
      "id": 287328785,
      "lat": 55.566255,
      "lon": 12.2697411,
      "tags": {
        "light_rail": "yes",
        "name": "Karlslunde",
        "public_transport": "station",
        "railway": "station",
        "railway:ref": "Klu",
        "station": "light_rail",
        "wikidata": "Q1992973"
      }
    },
    {
      "type": "node",
      "id": 287332180,
      "lat": 55.5333354,
      "lon": 12.2181028,
      "tags": {
        "light_rail": "yes",
        "name": "Solrød Strand",
        "public_transport": "station",
        "railway": "station",
        "railway:ref": "Sol",
        "station": "light_rail",
        "wheelchair": "yes",
        "wikidata": "Q2706917"
      }
    },
    {
      "type": "node",
      "id": 287333273,
      "lat": 55.5214056,
      "lon": 12.2089516,
      "tags": {
        "light_rail": "yes",
        "name": "Jersie",
        "public_transport": "station",
        "railway": "halt",
        "railway:ref": "Jsi",
        "station": "light_rail",
        "wikidata": "Q2651093",
        "wikimedia_commons": "File:Jersie Station 07.jpg",
        "wikipedia": "da:Jersie Station"
      }
    },
    {
      "type": "node",
      "id": 287901130,
      "lat": 55.4579793,
      "lon": 12.1864669,
      "tags": {
        "light_rail": "yes",
        "name": "Køge",
        "operator": "DSB",
        "public_transport": "station",
        "railway": "station",
        "railway:ref": "Kj",
        "station": "light_rail",
        "wheelchair": "yes",
        "wikidata": "Q2647550"
      }
    },
    {
      "type": "node",
      "id": 290264375,
      "lat": 55.8867645,
      "lon": 12.2021191,
      "tags": {
        "name": "Gørløse",
        "public_transport": "station",
        "railway": "station",
        "railway:ref": "Gør",
        "wheelchair": "yes",
        "wikidata": "Q12314810"
      }
    },
    {
      "type": "node",
      "id": 293064041,
      "lat": 55.9334337,
      "lon": 12.5062517,
      "tags": {
        "name": "Nivå",
        "public_transport": "station",
        "railway": "station",
        "railway:ref": "Ni",
        "wikidata": "Q12329072"
      }
    },
    {
      "type": "node",
      "id": 295218037,
      "lat": 55.5816884,
      "lon": 12.2966496,
      "tags": {
        "light_rail": "yes",
        "name": "Greve",
        "public_transport": "station",
        "railway": "halt",
        "railway:ref": "Gre",
        "station": "light_rail",
        "wikidata": "Q2207964"
      }
    },
    {
      "type": "node",
      "id": 301546237,
      "lat": 55.3276252,
      "lon": 8.7702871,
      "tags": {
        "name": "Ribe",
        "public_transport": "station",
        "railway": "station",
        "railway:ref": "Rb",
        "wheelchair": "yes",
        "wikidata": "Q9310209"
      }
    },
    {
      "type": "node",
      "id": 303878638,
      "lat": 55.6777772,
      "lon": 11.0898869,
      "tags": {
        "name": "Kalundborg",
        "public_transport": "station",
        "railway": "station",
        "railway:ref": "Kb",
        "wikidata": "Q3048656"
      }
    },
    {
      "type": "node",
      "id": 305361897,
      "lat": 56.4915771,
      "lon": 8.6017794,
      "tags": {
        "name": "Struer",
        "network": "Banedanmark",
        "operator": "DSB;Arriva",
        "public_transport": "station",
        "railway": "station",
        "railway:ref": "Str",
        "wheelchair": "yes",
        "wikidata": "Q1993279"
      }
    },
    {
      "type": "node",
      "id": 312068729,
      "lat": 56.4471382,
      "lon": 9.3984137,
      "tags": {
        "name": "Viborg",
        "public_transport": "station",
        "railway": "station",
        "railway:ref": "Vg",
        "wheelchair": "yes",
        "wikidata": "Q2599562"
      }
    },
    {
      "type": "node",
      "id": 321404626,
      "lat": 55.4190441,
      "lon": 11.569258,
      "tags": {
        "name": "Sorø",
        "public_transport": "station",
        "railway": "station",
        "railway:ref": "So",
        "wheelchair": "limited",
        "wikidata": "Q2541354"
      }
    },
    {
      "type": "node",
      "id": 341505548,
      "lat": 55.0118034,
      "lon": 11.89923,
      "tags": {
        "name": "Vordingborg",
        "public_transport": "station",
        "railway": "station",
        "railway:ref": "Vo",
        "wheelchair": "yes",
        "wikidata": "Q593600"
      }
    },
    {
      "type": "node",
      "id": 349187308,
      "lat": 55.8403845,
      "lon": 12.4235029,
      "tags": {
        "light_rail": "yes",
        "name": "Birkerød",
        "public_transport": "station",
        "railway": "station",
        "railway:ref": "Bi",
        "station": "light_rail",
        "wikidata": "Q3260911"
      }
    },
    {
      "type": "node",
      "id": 358175143,
      "lat": 56.1629045,
      "lon": 10.2163671,
      "tags": {
        "light_rail": "yes",
        "local_ref": "2",
        "name": "Østbanetorvet",
        "public_transport": "stop_position",
        "railway": "halt",
        "railway:position": "1.9",
        "ref": "860014802",
        "ref_name": "Østbanetorvet"
      }
    },
    {
      "type": "node",
      "id": 370384146,
      "lat": 56.3628841,
      "lon": 10.5875178,
      "tags": {
        "ele": "3.3",
        "light_rail": "yes",
        "name": "Kolind",
        "public_transport": "station",
        "railway": "halt",
        "railway:ref": "Ko",
        "start_date": "1876-08-26",
        "station": "light_rail",
        "toilets": "yes",
        "wikidata": "Q12322467"
      }
    },
    {
      "type": "node",
      "id": 370384255,
      "lat": 56.390005,
      "lon": 10.8721102,
      "tags": {
        "light_rail": "yes",
        "name": "Hessel",
        "public_transport": "station",
        "railway": "halt",
        "railway:ref": "Hsl",
        "station": "light_rail",
        "wikidata": "Q28758798"
      }
    },
    {
      "type": "node",
      "id": 392267654,
      "lat": 55.4177615,
      "lon": 12.1370254,
      "tags": {
        "name": "Herfølge",
        "public_transport": "station",
        "railway": "station",
        "railway:ref": "Hf",
        "railway:ref:DB": "XDHF",
        "wikidata": "Q12316551"
      }
    },
    {
      "type": "node",
      "id": 399568525,
      "lat": 54.856068,
      "lon": 11.8853384,
      "tags": {
        "name": "Eskilstrup",
        "operator": "DSB",
        "public_transport": "station",
        "railway": "station",
        "railway:ref": "Ek",
        "wikidata": "Q12310622"
      }
    },
    {
      "type": "node",
      "id": 409130801,
      "lat": 56.1163997,
      "lon": 12.2983736,
      "tags": {
        "name": "Fjellenstrup",
        "public_transport": "station",
        "railway": "halt",
        "railway:ref": "Fjg",
        "wikidata": "Q12311476"
      }
    },
    {
      "type": "node",
      "id": 409130897,
      "lat": 56.0632032,
      "lon": 12.2956377,
      "tags": {
        "name": "Græsted syd",
        "public_transport": "station",
        "railway": "halt",
        "railway:ref": "Grs",
        "wikidata": "Q12314468"
      }
    },
    {
      "type": "node",
      "id": 441354384,
      "lat": 55.9100033,
      "lon": 8.5204386,
      "tags": {
        "name": "Tarm",
        "public_transport": "station",
        "railway": "halt",
        "railway:ref": "Ta",
        "wikidata": "Q12338811"
      }
    },
    {
      "type": "node",
      "id": 441565080,
      "lat": 56.0823895,
      "lon": 10.0381925,
      "tags": {
        "name": "Hørning",
        "public_transport": "station",
        "railway": "station",
        "railway:ref": "Hx",
        "wikidata": "Q12317829"
      }
    },
    {
      "type": "node",
      "id": 442634819,
      "lat": 56.8922846,
      "lon": 8.5272962,
      "tags": {
        "name": "Snedsted",
        "public_transport": "station",
        "railway": "station",
        "railway:ref": "Sne",
        "wikidata": "Q12336198"
      }
    },
    {
      "type": "node",
      "id": 442957822,
      "lat": 54.8235559,
      "lon": 9.3589629,
      "tags": {
        "name": "Padborg",
        "name:de": "Pattburg",
        "operator": "Banedanmark",
        "operator:wikidata": "Q806420",
        "operator:wikipedia": "da:Banedanmark",
        "public_transport": "station",
        "railway": "station",
        "railway:ref": "Pa",
        "railway:ref:DB": "XDPA",
        "wheelchair": "no",
        "wikidata": "Q1965072"
      }
    },
    {
      "type": "node",
      "id": 447560862,
      "lat": 57.4602346,
      "lon": 9.9628548,
      "tags": {
        "name": "Teglgårdsvej",
        "public_transport": "station",
        "railway": "halt",
        "railway:ref": "Tgv",
        "wikidata": "Q12338868"
      }
    },
    {
      "type": "node",
      "id": 447560864,
      "lat": 57.4732312,
      "lon": 9.9658307,
      "tags": {
        "name": "Herregårdsparken",
        "public_transport": "station",
        "railway": "halt",
        "railway:ref": "Hgp"
      }
    },
    {
      "type": "node",
      "id": 472208337,
      "lat": 55.2169821,
      "lon": 12.1619457,
      "tags": {
        "name": "Faxe Ladeplads",
        "public_transport": "station",
        "railway": "station",
        "railway:ref": "Fxl",
        "wikidata": "Q12310982"
      }
    },
    {
      "type": "node",
      "id": 494382792,
      "lat": 55.7188384,
      "lon": 12.4435483,
      "tags": {
        "light_rail": "yes",
        "name": "Herlev",
        "public_transport": "station",
        "railway": "station",
        "railway:ref": "Her",
        "station": "light_rail",
        "wheelchair": "yes",
        "wikidata": "Q2368951"
      }
    },
    {
      "type": "node",
      "id": 494382836,
      "lat": 55.7471585,
      "lon": 12.4941762,
      "tags": {
        "light_rail": "yes",
        "name": "Buddinge",
        "public_transport": "station",
        "railway": "station",
        "railway:ref": "Bud",
        "station": "light_rail",
        "wheelchair": "yes",
        "wikidata": "Q115205580"
      }
    },
    {
      "type": "node",
      "id": 496383856,
      "lat": 55.8649715,
      "lon": 12.3828421,
      "tags": {
        "name": "Blovstrød Hallen",
        "public_transport": "station",
        "railway": "station"
      }
    },
    {
      "type": "node",
      "id": 496386014,
      "lat": 55.8583852,
      "lon": 12.3754988,
      "tags": {
        "name": "Oskar Jensens Bro",
        "public_transport": "station",
        "railway": "halt"
      }
    },
    {
      "type": "node",
      "id": 499503680,
      "lat": 56.6015949,
      "lon": 8.1484001,
      "tags": {
        "name": "Vrist",
        "public_transport": "station",
        "railway": "halt",
        "railway:ref": "Vri",
        "wikidata": "Q12344084"
      }
    },
    {
      "type": "node",
      "id": 499503742,
      "lat": 56.5654011,
      "lon": 8.2196991,
      "tags": {
        "name": "Klinkby",
        "public_transport": "station",
        "railway": "halt",
        "railway:ref": "Kli",
        "wikidata": "Q12322154"
      }
    },
    {
      "type": "node",
      "id": 499503797,
      "lat": 56.5469936,
      "lon": 8.3000424,
      "tags": {
        "name": "Lemvig",
        "public_transport": "station",
        "railway": "station",
        "railway:ref": "Lmv",
        "ref": "8604817",
        "ref_name": "Lemvig St.",
        "train": "yes",
        "wheelchair": "yes",
        "wikidata": "Q12324241",
        "wikipedia": "da:Lemvig Station"
      }
    },
    {
      "type": "node",
      "id": 502869881,
      "lat": 56.5775419,
      "lon": 8.1431155,
      "tags": {
        "name": "Victoria Street Station",
        "note": "The name does correctly contain the word \"Station\" as a postfix - and yes the station name is actually written in English",
        "public_transport": "station",
        "railway": "halt",
        "railway:ref": "Vic",
        "wikidata": "Q12343913"
      }
    },
    {
      "type": "node",
      "id": 559559564,
      "lat": 55.9217056,
      "lon": 11.6733626,
      "tags": {
        "alt_name": "Nykøbing Sjælland",
        "name": "Nykøbing Sj",
        "public_transport": "station",
        "railway": "station",
        "railway:ref": "Nks",
        "wheelchair": "yes",
        "wikidata": "Q5080517"
      }
    },
    {
      "type": "node",
      "id": 559987092,
      "lat": 55.4243351,
      "lon": 12.1900413,
      "tags": {
        "name": "Egøje",
        "public_transport": "station",
        "railway": "station",
        "railway:ref": "Egø",
        "wikidata": "Q12309518"
      }
    },
    {
      "type": "node",
      "id": 586436631,
      "lat": 55.6988768,
      "lon": 12.469386,
      "tags": {
        "light_rail": "yes",
        "name": "Islev",
        "public_transport": "station",
        "railway": "halt",
        "railway:ref": "Ist",
        "station": "light_rail",
        "wikidata": "Q12342400"
      }
    },
    {
      "type": "node",
      "id": 586436651,
      "lat": 55.6903652,
      "lon": 12.4779237,
      "tags": {
        "light_rail": "yes",
        "name": "Jyllingevej",
        "public_transport": "station",
        "railway": "halt",
        "railway:ref": "Jyt",
        "station": "light_rail",
        "wheelchair": "limited",
        "wikidata": "Q6319355"
      }
    },
    {
      "type": "node",
      "id": 587660892,
      "lat": 55.7230635,
      "lon": 12.4027132,
      "tags": {
        "light_rail": "yes",
        "name": "Skovlunde",
        "public_transport": "station",
        "railway": "halt",
        "railway:ref": "Sko",
        "station": "light_rail",
        "wikidata": "Q7536502"
      }
    },
    {
      "type": "node",
      "id": 587732384,
      "lat": 55.7473861,
      "lon": 12.3181279,
      "tags": {
        "light_rail": "yes",
        "name": "Måløv",
        "public_transport": "station",
        "railway": "halt",
        "railway:ref": "Mw",
        "station": "light_rail",
        "wikidata": "Q12328030"
      }
    },
    {
      "type": "node",
      "id": 587738050,
      "lat": 55.8349843,
      "lon": 12.0661855,
      "tags": {
        "light_rail": "yes",
        "name": "Frederikssund",
        "public_transport": "station",
        "railway": "station",
        "railway:ref": "Fs",
        "station": "light_rail",
        "toilets": "no",
        "wheelchair": "yes",
        "wikidata": "Q2350881"
      }
    },
    {
      "type": "node",
      "id": 587738110,
      "lat": 55.7957669,
      "lon": 12.1593166,
      "tags": {
        "light_rail": "yes",
        "name": "Ølstykke",
        "public_transport": "station",
        "railway": "station",
        "railway:ref": "Øl",
        "station": "light_rail",
        "wikidata": "Q8079213"
      }
    },
    {
      "type": "node",
      "id": 587738170,
      "lat": 55.7797855,
      "lon": 12.1854997,
      "tags": {
        "light_rail": "yes",
        "name": "Egedal",
        "old_name": "Gl. Toftegård",
        "public_transport": "station",
        "railway": "halt",
        "railway:ref": "Egd",
        "station": "light_rail",
        "wikidata": "Q5520350"
      }
    },
    {
      "type": "node",
      "id": 587738229,
      "lat": 55.749917,
      "lon": 12.2405908,
      "tags": {
        "light_rail": "yes",
        "name": "Veksø",
        "public_transport": "station",
        "railway": "station",
        "railway:ref": "Vs",
        "station": "light_rail",
        "wheelchair": "yes",
        "wikidata": "Q7918751"
      }
    },
    {
      "type": "node",
      "id": 587739741,
      "lat": 55.7519613,
      "lon": 12.2864603,
      "tags": {
        "light_rail": "yes",
        "name": "Kildedal",
        "public_transport": "station",
        "railway": "halt",
        "railway:ref": "Kid",
        "station": "light_rail",
        "wikidata": "Q12321787"
      }
    },
    {
      "type": "node",
      "id": 593753668,
      "lat": 55.675817,
      "lon": 12.56241,
      "tags": {
        "light_rail": "yes",
        "name": "Vesterport",
        "network": "S-tog",
        "public_transport": "station",
        "railway": "halt",
        "railway:ref": "Vpt",
        "station": "light_rail",
        "wheelchair": "yes",
        "wikidata": "Q2039347"
      }
    },
    {
      "type": "node",
      "id": 593765406,
      "lat": 55.6650983,
      "lon": 12.5595897,
      "tags": {
        "alt_name": "Fisketorvet",
        "light_rail": "yes",
        "name": "Dybbølsbro",
        "old_name": "Fisketorvet",
        "public_transport": "station",
        "railway": "halt",
        "railway:ref": "Dbt",
        "station": "light_rail",
        "wikidata": "Q2459840"
      }
    },
    {
      "type": "node",
      "id": 593869905,
      "lat": 55.7154843,
      "lon": 12.5596915,
      "tags": {
        "light_rail": "yes",
        "name": "Ryparken",
        "public_transport": "station",
        "railway": "halt",
        "railway:ref": "Ryt",
        "station": "light_rail",
        "wikidata": "Q2625561"
      }
    },
    {
      "type": "node",
      "id": 595293336,
      "lat": 55.7155342,
      "lon": 12.5788253,
      "tags": {
        "light_rail": "yes",
        "name": "Svanemøllen",
        "operator": "DSB",
        "public_transport": "station",
        "railway": "station",
        "railway:ref": "Sam",
        "start_date": "1934",
        "station": "light_rail",
        "wheelchair": "yes",
        "wikidata": "Q1810737"
      }
    },
    {
      "type": "node",
      "id": 595296652,
      "lat": 55.7049718,
      "lon": 12.5910118,
      "tags": {
        "light_rail": "yes",
        "name": "Nordhavn",
        "public_transport": "station",
        "railway": "halt",
        "railway:ref": "Nht",
        "station": "light_rail",
        "wheelchair": "limited",
        "wikidata": "Q686519"
      }
    },
    {
      "type": "node",
      "id": 597426641,
      "lat": 55.7615864,
      "lon": 12.4545574,
      "tags": {
        "light_rail": "yes",
        "name": "Bagsværd",
        "public_transport": "station",
        "railway": "halt",
        "railway:ref": "Bav",
        "station": "light_rail",
        "wikidata": "Q1900098"
      }
    },
    {
      "type": "node",
      "id": 597426666,
      "lat": 55.7567178,
      "lon": 12.4731006,
      "tags": {
        "internet_access": "no",
        "light_rail": "yes",
        "name": "Stengården",
        "public_transport": "station",
        "railway": "halt",
        "railway:ref": "Sgt",
        "station": "light_rail",
        "wheelchair": "yes",
        "wikidata": "Q2289298"
      }
    },
    {
      "type": "node",
      "id": 597729973,
      "lat": 55.7392848,
      "lon": 12.5242143,
      "tags": {
        "light_rail": "yes",
        "name": "Vangede",
        "public_transport": "station",
        "railway": "halt",
        "railway:ref": "Ang",
        "station": "light_rail",
        "wikidata": "Q4289919"
      }
    },
    {
      "type": "node",
      "id": 597730004,
      "lat": 55.7446631,
      "lon": 12.5079642,
      "tags": {
        "light_rail": "yes",
        "name": "Kildebakke",
        "public_transport": "station",
        "railway": "halt",
        "railway:ref": "Ket",
        "station": "light_rail",
        "wikidata": "Q1960792"
      }
    },
    {
      "type": "node",
      "id": 597730022,
      "lat": 55.7323761,
      "lon": 12.5360326,
      "tags": {
        "light_rail": "yes",
        "name": "Dyssegård",
        "public_transport": "station",
        "railway": "station",
        "railway:ref": "Dyt",
        "station": "light_rail",
        "wikidata": "Q2615777"
      }
    },
    {
      "type": "node",
      "id": 597771392,
      "lat": 55.7824512,
      "lon": 12.3719152,
      "tags": {
        "light_rail": "yes",
        "name": "Værløse",
        "public_transport": "station",
        "railway": "halt",
        "railway:ref": "Vær",
        "station": "light_rail",
        "wikidata": "Q2353868"
      }
    },
    {
      "type": "node",
      "id": 597771450,
      "lat": 55.7652202,
      "lon": 12.4079689,
      "tags": {
        "light_rail": "yes",
        "name": "Hareskov",
        "public_transport": "station",
        "railway": "station",
        "railway:ref": "Har",
        "station": "light_rail",
        "wikidata": "Q2724161"
      }
    },
    {
      "type": "node",
      "id": 597771469,
      "lat": 55.7651626,
      "lon": 12.4337301,
      "tags": {
        "light_rail": "yes",
        "name": "Skovbrynet",
        "public_transport": "station",
        "railway": "halt",
        "railway:ref": "Skt",
        "station": "light_rail",
        "wikidata": "Q2768443"
      }
    },
    {
      "type": "node",
      "id": 597771482,
      "lat": 55.8121053,
      "lon": 12.3737085,
      "tags": {
        "check_date:wheelchair": "2025-09-27",
        "light_rail": "yes",
        "name": "Farum",
        "public_transport": "station",
        "railway": "station",
        "railway:ref": "Fm",
        "station": "light_rail",
        "wheelchair": "yes",
        "wheelchair:description": "Hele forpladsen til stationsområdet er belagt med små brosten. Det gør det meget svært at komme til og fra stationen.",
        "wikidata": "Q2494694"
      }
    },
    {
      "type": "node",
      "id": 598201521,
      "lat": 55.7305908,
      "lon": 12.566911,
      "tags": {
        "light_rail": "yes",
        "name": "Hellerup",
        "public_transport": "station",
        "railway": "station",
        "railway:ref": "Hl",
        "station": "light_rail",
        "train": "yes",
        "wheelchair": "yes",
        "wikidata": "Q3248474"
      }
    },
    {
      "type": "node",
      "id": 598205283,
      "lat": 55.7535946,
      "lon": 12.541436,
      "tags": {
        "light_rail": "yes",
        "name": "Gentofte",
        "public_transport": "station",
        "railway": "station",
        "railway:ref": "Gj",
        "station": "light_rail",
        "wheelchair": "yes",
        "wikidata": "Q2430559"
      }
    },
    {
      "type": "node",
      "id": 606290640,
      "lat": 55.9684351,
      "lon": 12.0194657,
      "tags": {
        "name": "Frederiksværk",
        "operator": "Lokaltog",
        "public_transport": "station",
        "railway": "station",
        "railway:ref": "Frv",
        "train": "yes",
        "wheelchair": "yes",
        "wikidata": "Q12312837"
      }
    },
    {
      "type": "node",
      "id": 610409959,
      "lat": 55.2482225,
      "lon": 11.7863882,
      "tags": {
        "name": "Næstved Nord",
        "public_transport": "station",
        "railway": "halt",
        "railway:ref": "Næn",
        "wikidata": "Q12329579"
      }
    },
    {
      "type": "node",
      "id": 610619173,
      "lat": 55.7006813,
      "lon": 12.5378036,
      "tags": {
        "layer": "1",
        "light_rail": "yes",
        "name": "Nørrebro",
        "public_transport": "station",
        "railway": "halt",
        "railway:ref": "Nø",
        "station": "light_rail",
        "wikidata": "Q1963278"
      }
    },
    {
      "type": "node",
      "id": 611297799,
      "lat": 55.6953074,
      "lon": 12.5266803,
      "tags": {
        "light_rail": "yes",
        "name": "Fuglebakken",
        "network": "S-tog",
        "operator": "DSB S-tog",
        "public_transport": "station",
        "railway": "halt",
        "railway:ref": "Fut",
        "station": "light_rail",
        "wheelchair": "yes",
        "wikidata": "Q2188517"
      }
    },
    {
      "type": "node",
      "id": 611305003,
      "lat": 55.6855434,
      "lon": 12.4988664,
      "tags": {
        "light_rail": "yes",
        "name": "Flintholm",
        "public_transport": "station",
        "railway": "station",
        "railway:ref": "Fl",
        "station": "light_rail",
        "wheelchair": "yes"
      }
    },
    {
      "type": "node",
      "id": 611305065,
      "lat": 55.6905327,
      "lon": 12.5153054,
      "tags": {
        "light_rail": "yes",
        "name": "Grøndal",
        "network": "S-tog",
        "public_transport": "station",
        "railway": "halt",
        "railway:ref": "Ght",
        "station": "light_rail",
        "wikidata": "Q1943022"
      }
    },
    {
      "type": "node",
      "id": 611318182,
      "lat": 55.6643892,
      "lon": 12.4937549,
      "tags": {
        "light_rail": "yes",
        "name": "Danshøj",
        "public_transport": "station",
        "railway": "halt",
        "railway:ref": "Dah",
        "station": "light_rail",
        "wikidata": "Q2355834"
      }
    },
    {
      "type": "node",
      "id": 611318209,
      "lat": 55.6720657,
      "lon": 12.4931707,
      "tags": {
        "light_rail": "yes",
        "name": "Ålholm",
        "public_transport": "station",
        "railway": "halt",
        "railway:ref": "Ålm",
        "station": "light_rail",
        "wikidata": "Q4301643"
      }
    },
    {
      "type": "node",
      "id": 611318230,
      "lat": 55.6778138,
      "lon": 12.4923389,
      "tags": {
        "light_rail": "yes",
        "name": "KB Hallen",
        "public_transport": "station",
        "railway": "halt",
        "railway:ref": "Kbn",
        "station": "light_rail",
        "wikidata": "Q7061481"
      }
    },
    {
      "type": "node",
      "id": 611325250,
      "lat": 55.6597688,
      "lon": 12.4990504,
      "tags": {
        "light_rail": "yes",
        "name": "Vigerslev Allé",
        "public_transport": "station",
        "railway": "halt",
        "railway:ref": "Vgt",
        "station": "light_rail",
        "wikidata": "Q2101398"
      }
    },
    {
      "type": "node",
      "id": 659992474,
      "lat": 55.7207286,
      "lon": 12.5410549,
      "tags": {
        "light_rail": "yes",
        "name": "Emdrup",
        "public_transport": "station",
        "railway": "halt",
        "railway:ref": "Emt",
        "station": "light_rail",
        "wikidata": "Q3077827"
      }
    },
    {
      "type": "node",
      "id": 685736118,
      "lat": 56.4617821,
      "lon": 10.0212525,
      "tags": {
        "name": "Randers",
        "public_transport": "station",
        "railway": "station",
        "railway:ref": "Rd",
        "wheelchair": "yes",
        "wikidata": "Q3915966"
      }
    },
    {
      "type": "node",
      "id": 705436137,
      "lat": 55.8234905,
      "lon": 12.5716763,
      "tags": {
        "name": "Skodsborg",
        "public_transport": "station",
        "railway": "station",
        "railway:ref": "Så",
        "wheelchair": "yes",
        "wikidata": "Q12335738"
      }
    },
    {
      "type": "node",
      "id": 760770510,
      "lat": 55.6244403,
      "lon": 8.4759347,
      "tags": {
        "name": "Varde Vest",
        "operator": "GoCollective",
        "public_transport": "station",
        "railway": "station",
        "railway:ref": "Vav",
        "wikidata": "Q12340576"
      }
    },
    {
      "type": "node",
      "id": 795720440,
      "lat": 56.2717392,
      "lon": 8.3251704,
      "tags": {
        "name": "Ulfborg",
        "public_transport": "station",
        "railway": "station",
        "railway:ref": "Uf",
        "wheelchair": "limited",
        "wikidata": "Q12343538"
      }
    },
    {
      "type": "node",
      "id": 835872978,
      "lat": 55.7103473,
      "lon": 8.3043317,
      "tags": {
        "name": "Henne",
        "public_transport": "station",
        "railway": "halt",
        "railway:ref": "Hnn",
        "wikidata": "Q12316210"
      }
    },
    {
      "type": "node",
      "id": 877218130,
      "lat": 56.6009342,
      "lon": 9.9397697,
      "tags": {
        "name": "True",
        "railway": "halt"
      }
    },
    {
      "type": "node",
      "id": 918473251,
      "lat": 55.5448879,
      "lon": 9.6156777,
      "tags": {
        "name": "Taulov",
        "nat_ref": "8600081",
        "public_transport": "station",
        "railway": "station",
        "railway:ref": "Tl",
        "wheelchair": "no",
        "wikidata": "Q4858220"
      }
    },
    {
      "type": "node",
      "id": 930735765,
      "lat": 55.5069459,
      "lon": 11.285778,
      "tags": {
        "internet_access": "no",
        "name": "Høng",
        "public_transport": "station",
        "railway": "station",
        "railway:ref": "Øn"
      }
    },
    {
      "type": "node",
      "id": 935084532,
      "lat": 56.6981955,
      "lon": 8.2069903,
      "tags": {
        "name": "Thyborøn Kirke",
        "old_name": "Thyborøn",
        "public_transport": "station",
        "railway": "halt",
        "railway:ref": "Tht",
        "wikidata": "Q12339330"
      }
    },
    {
      "type": "node",
      "id": 954478323,
      "lat": 55.7355688,
      "lon": 9.1290767,
      "tags": {
        "name": "Lego Tog",
        "name:en": "Lego Train",
        "railway": "halt",
        "station": "miniature"
      }
    },
    {
      "type": "node",
      "id": 969996610,
      "lat": 56.0401889,
      "lon": 12.6110689,
      "tags": {
        "name": "Grønnehave",
        "public_transport": "station",
        "railway": "station",
        "railway:ref": "Grø",
        "wikidata": "Q12314516"
      }
    },
    {
      "type": "node",
      "id": 973877157,
      "lat": 56.0891468,
      "lon": 12.4597507,
      "tags": {
        "name": "Hornbæk",
        "public_transport": "station",
        "railway": "station",
        "railway:ref": "Hnk",
        "wikidata": "Q12317219"
      }
    },
    {
      "type": "node",
      "id": 974079715,
      "lat": 56.1007761,
      "lon": 12.3013937,
      "tags": {
        "name": "Pårup",
        "public_transport": "station",
        "railway": "halt",
        "railway:ref": "Ppg",
        "wikidata": "Q12332625"
      }
    },
    {
      "type": "node",
      "id": 974277027,
      "lat": 56.089918,
      "lon": 12.4353091,
      "tags": {
        "name": "Horneby Sand",
        "public_transport": "station",
        "railway": "halt",
        "railway:ref": "Hsa",
        "wikidata": "Q12317225"
      }
    },
    {
      "type": "node",
      "id": 974277028,
      "lat": 56.0926327,
      "lon": 12.4236891,
      "tags": {
        "name": "Kildekrog",
        "public_transport": "station",
        "railway": "halt",
        "railway:ref": "Kil",
        "wikidata": "Q12321793"
      }
    },
    {
      "type": "node",
      "id": 974278697,
      "lat": 56.0770008,
      "lon": 12.4855689,
      "tags": {
        "name": "Saunte",
        "public_transport": "station",
        "railway": "station",
        "railway:ref": "Sau",
        "wikidata": "Q12334696"
      }
    },
    {
      "type": "node",
      "id": 974395704,
      "lat": 56.0728918,
      "lon": 12.2867797,
      "tags": {
        "name": "Græsted",
        "public_transport": "station",
        "railway": "station",
        "railway:ref": "Græ",
        "wikidata": "Q12314467"
      }
    },
    {
      "type": "node",
      "id": 981472227,
      "lat": 55.9425356,
      "lon": 12.3111932,
      "tags": {
        "name": "Slotspavillonen",
        "public_transport": "station",
        "railway": "station",
        "railway:ref": "Spg",
        "wheelchair": "limited",
        "wikidata": "Q12336094"
      }
    },
    {
      "type": "node",
      "id": 981756634,
      "lat": 56.0306161,
      "lon": 12.3172416,
      "tags": {
        "name": "Mårum",
        "public_transport": "station",
        "railway": "station",
        "railway:ref": "Mmg",
        "wikidata": "Q12328043"
      }
    },
    {
      "type": "node",
      "id": 981794046,
      "lat": 56.0783894,
      "lon": 12.5131402,
      "tags": {
        "name": "Skibstrup St",
        "public_transport": "station",
        "railway": "halt",
        "railway:ref": "Skb",
        "shelter": "yes",
        "wikidata": "Q12335647"
      }
    },
    {
      "type": "node",
      "id": 981794047,
      "lat": 56.0829775,
      "lon": 12.4686067,
      "tags": {
        "name": "Karinebæk",
        "public_transport": "station",
        "railway": "halt",
        "railway:ref": "Kab",
        "wikidata": "Q12321358"
      }
    },
    {
      "type": "node",
      "id": 982170796,
      "lat": 55.9531826,
      "lon": 12.3694427,
      "tags": {
        "name": "Grønholt",
        "public_transport": "station",
        "railway": "halt",
        "railway:ref": "Grt"
      }
    },
    {
      "type": "node",
      "id": 982184668,
      "lat": 56.0021658,
      "lon": 12.5327463,
      "tags": {
        "name": "Mørdrup",
        "public_transport": "station",
        "railway": "halt",
        "railway:ref": "Møt",
        "wikidata": "Q12328131"
      }
    },
    {
      "type": "node",
      "id": 982618713,
      "lat": 56.054409,
      "lon": 12.3218282,
      "tags": {
        "name": "Saltrup",
        "public_transport": "station",
        "railway": "halt",
        "railway:ref": "Sag",
        "wikidata": "Q12334411"
      }
    },
    {
      "type": "node",
      "id": 986561297,
      "lat": 55.6487219,
      "lon": 12.1971176,
      "tags": {
        "name": "Hedehusene",
        "public_transport": "station",
        "railway": "halt",
        "railway:ref": "Hh",
        "wikidata": "Q12315895"
      }
    },
    {
      "type": "node",
      "id": 987210091,
      "lat": 55.5114827,
      "lon": 12.1404907,
      "tags": {
        "name": "Lille Skensved",
        "public_transport": "station",
        "railway": "station",
        "railway:ref": "Lw",
        "wikidata": "Q12324456"
      }
    },
    {
      "type": "node",
      "id": 988169085,
      "lat": 55.5398975,
      "lon": 11.3751861,
      "tags": {
        "name": "Ruds Vedby",
        "public_transport": "station",
        "railway": "station",
        "railway:ref": "Ruv",
        "wikidata": "Q12333922"
      }
    },
    {
      "type": "node",
      "id": 988231733,
      "lat": 55.5380698,
      "lon": 11.449095,
      "tags": {
        "name": "Skellebjerg",
        "public_transport": "station",
        "railway": "station",
        "railway:ref": "Skl",
        "wikidata": "Q12335613"
      }
    },
    {
      "type": "node",
      "id": 988241561,
      "lat": 55.5325286,
      "lon": 11.5472374,
      "tags": {
        "light_rail": "yes",
        "name": "Vedde",
        "public_transport": "station",
        "railway": "halt",
        "railway:ref": "Ved"
      }
    },
    {
      "type": "node",
      "id": 988319359,
      "lat": 55.6119686,
      "lon": 11.7732185,
      "tags": {
        "name": "Tølløse",
        "public_transport": "station",
        "railway": "station",
        "railway:ref": "Tø",
        "wheelchair": "yes",
        "wikidata": "Q2393517"
      }
    },
    {
      "type": "node",
      "id": 988319689,
      "lat": 55.5741487,
      "lon": 11.7652686,
      "tags": {
        "name": "Kirke Eskilstrup",
        "public_transport": "station",
        "railway": "station",
        "railway:ref": "Kek",
        "wikidata": "Q12322788"
      }
    },
    {
      "type": "node",
      "id": 988319771,
      "lat": 55.5450353,
      "lon": 11.7110174,
      "tags": {
        "name": "Store Merløse",
        "public_transport": "station",
        "railway": "station",
        "railway:ref": "Sms",
        "wikidata": "Q12336796"
      }
    },
    {
      "type": "node",
      "id": 988319781,
      "lat": 55.5442784,
      "lon": 11.685297,
      "tags": {
        "name": "Bagmarken",
        "public_transport": "station",
        "railway": "halt",
        "railway:ref": "Bmt"
      }
    },
    {
      "type": "node",
      "id": 988319798,
      "lat": 55.542361,
      "lon": 11.6525781,
      "tags": {
        "light_rail": "yes",
        "name": "Nyrup",
        "public_transport": "station",
        "railway": "halt",
        "railway:ref": "Nyp",
        "wikidata": "Q12329485"
      }
    },
    {
      "type": "node",
      "id": 988319853,
      "lat": 55.5391527,
      "lon": 11.5912253,
      "tags": {
        "name": "Stenlille",
        "public_transport": "station",
        "railway": "station",
        "railway:ref": "Stl",
        "wikidata": "Q12337114"
      }
    },
    {
      "type": "node",
      "id": 988781386,
      "lat": 55.6043364,
      "lon": 11.9702792,
      "tags": {
        "name": "Lejre",
        "public_transport": "station",
        "railway": "station",
        "railway:ref": "Lj",
        "wheelchair": "yes",
        "wikidata": "Q12324210"
      }
    },
    {
      "type": "node",
      "id": 988781571,
      "lat": 55.6670078,
      "lon": 11.7388715,
      "tags": {
        "name": "Vipperød",
        "public_transport": "station",
        "railway": "station",
        "railway:ref": "Pe",
        "wikidata": "Q12341149"
      }
    },
    {
      "type": "node",
      "id": 988781752,
      "lat": 55.7153208,
      "lon": 11.6872483,
      "tags": {
        "name": "Stenhus",
        "public_transport": "station",
        "railway": "halt",
        "railway:ref": "Sht"
      }
    },
    {
      "type": "node",
      "id": 988782048,
      "lat": 55.6774969,
      "lon": 11.612578,
      "tags": {
        "name": "Regstrup",
        "public_transport": "station",
        "railway": "station",
        "railway:ref": "Rt",
        "wheelchair": "limited",
        "wikidata": "Q12333144"
      }
    },
    {
      "type": "node",
      "id": 988782107,
      "lat": 55.654562,
      "lon": 11.5021766,
      "tags": {
        "name": "Mørkøv",
        "public_transport": "station",
        "railway": "station",
        "railway:ref": "Mø",
        "wikidata": "Q12328143"
      }
    },
    {
      "type": "node",
      "id": 988782137,
      "lat": 55.6648959,
      "lon": 11.5538862,
      "tags": {
        "name": "Knabstrup",
        "public_transport": "station",
        "railway": "halt",
        "railway:ref": "Ks",
        "wikidata": "Q12322230"
      }
    },
    {
      "type": "node",
      "id": 988803072,
      "lat": 55.6602985,
      "lon": 11.3982482,
      "tags": {
        "departures_board": "realtime",
        "departures_board:speech_output": "no",
        "name": "Jyderup",
        "public_transport": "station",
        "railway": "station",
        "railway:ref": "Jy",
        "wikidata": "Q12320633"
      }
    },
    {
      "type": "node",
      "id": 989139037,
      "lat": 55.7526175,
      "lon": 11.4563649,
      "tags": {
        "name": "Hørve",
        "public_transport": "station",
        "railway": "station",
        "railway:ref": "Hve",
        "wikidata": "Q12317845"
      }
    },
    {
      "type": "node",
      "id": 996154510,
      "lat": 55.7287879,
      "lon": 11.5943293,
      "tags": {
        "name": "Ny Hagested",
        "public_transport": "station",
        "railway": "halt",
        "railway:ref": "Hgt"
      }
    },
    {
      "type": "node",
      "id": 996154518,
      "lat": 55.7295576,
      "lon": 11.5473031,
      "tags": {
        "name": "Gislinge",
        "public_transport": "station",
        "railway": "station",
        "railway:ref": "Gsl",
        "wheelchair": "no",
        "wikidata": "Q12313916"
      }
    },
    {
      "type": "node",
      "id": 996154544,
      "lat": 55.7234244,
      "lon": 11.4678504,
      "tags": {
        "name": "Svinninge",
        "public_transport": "station",
        "railway": "station",
        "railway:ref": "Sng",
        "wikidata": "Q12338035"
      }
    },
    {
      "type": "node",
      "id": 996203371,
      "lat": 55.7882281,
      "lon": 11.4698018,
      "tags": {
        "name": "Fårevejle",
        "public_transport": "station",
        "railway": "station",
        "railway:ref": "Fvj",
        "wheelchair": "yes",
        "wikidata": "Q12313266"
      }
    },
    {
      "type": "node",
      "id": 996203382,
      "lat": 55.808577,
      "lon": 11.4995742,
      "tags": {
        "name": "Asnæs",
        "public_transport": "station",
        "railway": "station",
        "railway:ref": "Asn",
        "wikidata": "Q12302338"
      }
    },
    {
      "type": "node",
      "id": 996203401,
      "lat": 55.8030131,
      "lon": 11.5513623,
      "tags": {
        "name": "Grevinge",
        "public_transport": "station",
        "railway": "station",
        "railway:ref": "Grv",
        "wikidata": "Q12314326"
      }
    },
    {
      "type": "node",
      "id": 996209671,
      "lat": 55.8522077,
      "lon": 11.5819286,
      "tags": {
        "name": "Vig",
        "public_transport": "station",
        "railway": "station",
        "railway:ref": "Vig",
        "wikidata": "Q12340962"
      }
    },
    {
      "type": "node",
      "id": 996226251,
      "lat": 55.8830623,
      "lon": 11.6066198,
      "tags": {
        "name": "Nørre Asmindrup",
        "public_transport": "station",
        "railway": "station",
        "railway:ref": "Nam",
        "wikidata": "Q12329337"
      }
    },
    {
      "type": "node",
      "id": 996226266,
      "lat": 55.8971898,
      "lon": 11.6034977,
      "tags": {
        "name": "Sommerland Sjælland",
        "public_transport": "station",
        "railway": "halt",
        "railway:ref": "Slt",
        "wikidata": "Q12336410"
      }
    },
    {
      "type": "node",
      "id": 996238249,
      "lat": 55.9105729,
      "lon": 11.603638,
      "tags": {
        "name": "Højby Sjælland",
        "public_transport": "station",
        "railway": "station",
        "railway:ref": "Hbs",
        "wheelchair": "yes",
        "wikidata": "Q12317747"
      }
    },
    {
      "type": "node",
      "id": 996238285,
      "lat": 55.9219566,
      "lon": 11.6555929,
      "tags": {
        "name": "Nyled",
        "public_transport": "station",
        "railway": "halt",
        "railway:ref": "Ndt",
        "wikidata": "Q12329464"
      }
    },
    {
      "type": "node",
      "id": 996349655,
      "lat": 55.5339804,
      "lon": 11.4996546,
      "tags": {
        "name": "Dianalund",
        "public_transport": "station",
        "railway": "station",
        "railway:ref": "Dia",
        "wikidata": "Q12308572"
      }
    },
    {
      "type": "node",
      "id": 996617445,
      "lat": 55.9664199,
      "lon": 12.392047,
      "tags": {
        "name": "Kratbjerg",
        "public_transport": "station",
        "railway": "halt",
        "railway:ref": "Krb",
        "wikidata": "Q12322817"
      }
    },
    {
      "type": "node",
      "id": 996708565,
      "lat": 56.0093169,
      "lon": 12.5831746,
      "tags": {
        "name": "Snekkersten",
        "public_transport": "station",
        "railway": "station",
        "railway:ref": "Sq",
        "wikidata": "Q1825718"
      }
    },
    {
      "type": "node",
      "id": 998154730,
      "lat": 55.9465918,
      "lon": 12.0342457,
      "tags": {
        "name": "Lille Kregme",
        "public_transport": "station",
        "railway": "halt",
        "railway:ref": "Llk",
        "wikidata": "Q12324766"
      }
    },
    {
      "type": "node",
      "id": 998154790,
      "lat": 55.9349214,
      "lon": 12.0465329,
      "tags": {
        "name": "Kregme",
        "public_transport": "station",
        "railway": "station",
        "railway:ref": "Krf",
        "wheelchair": "yes",
        "wikidata": "Q12322837"
      }
    },
    {
      "type": "node",
      "id": 998155107,
      "lat": 55.9073352,
      "lon": 12.1495823,
      "tags": {
        "name": "Skævinge",
        "public_transport": "station",
        "railway": "station",
        "railway:ref": "Skv",
        "wheelchair": "yes",
        "wikidata": "Q12335965"
      }
    },
    {
      "type": "node",
      "id": 998155928,
      "lat": 55.8935491,
      "lon": 12.2795272,
      "tags": {
        "name": "Brødeskov",
        "public_transport": "station",
        "railway": "station",
        "railway:ref": "Bsk",
        "wheelchair": "yes",
        "wikidata": "Q12304533"
      }
    },
    {
      "type": "node",
      "id": 998175782,
      "lat": 55.975101,
      "lon": 12.0012103,
      "tags": {
        "name": "Hanehoved",
        "public_transport": "station",
        "railway": "halt",
        "railway:ref": "Hhf",
        "wikidata": "Q12315160"
      }
    },
    {
      "type": "node",
      "id": 998228805,
      "lat": 55.9657624,
      "lon": 11.8465877,
      "tags": {
        "internet_access": "no",
        "name": "Hundested Havn",
        "public_transport": "station",
        "railway": "station",
        "railway:ref": "Huh",
        "train": "yes",
        "wheelchair": "yes",
        "wikidata": "Q12317452"
      }
    },
    {
      "type": "node",
      "id": 998228941,
      "lat": 55.9602162,
      "lon": 11.8730926,
      "tags": {
        "name": "Vibehus",
        "public_transport": "station",
        "railway": "halt",
        "railway:ref": "Vif"
      }
    },
    {
      "type": "node",
      "id": 998228961,
      "lat": 55.9767852,
      "lon": 11.9136932,
      "tags": {
        "name": "Østerbjerg",
        "public_transport": "station",
        "railway": "station",
        "railway:ref": "Øsf",
        "wheelchair": "yes",
        "wikidata": "Q12342111"
      }
    },
    {
      "type": "node",
      "id": 998229009,
      "lat": 55.991433,
      "lon": 11.971413,
      "tags": {
        "name": "Melby",
        "public_transport": "station",
        "railway": "station",
        "railway:ref": "Mel",
        "wheelchair": "yes",
        "wikidata": "Q12326581"
      }
    },
    {
      "type": "node",
      "id": 998776421,
      "lat": 56.0982157,
      "lon": 12.356426,
      "tags": {
        "name": "Firhøj",
        "public_transport": "station",
        "railway": "station",
        "railway:ref": "Fir",
        "wikidata": "Q12311425"
      }
    },
    {
      "type": "node",
      "id": 998781639,
      "lat": 56.1005472,
      "lon": 12.333882,
      "tags": {
        "name": "Søborg",
        "public_transport": "station",
        "railway": "halt",
        "railway:ref": "Søb",
        "wikidata": "Q12338269"
      }
    },
    {
      "type": "node",
      "id": 999247120,
      "lat": 55.91571,
      "lon": 12.1021686,
      "tags": {
        "name": "Grimstrup",
        "public_transport": "station",
        "railway": "halt",
        "railway:ref": "Gsf",
        "wikidata": "Q12314361"
      }
    },
    {
      "type": "node",
      "id": 1017968484,
      "lat": 55.6526314,
      "lon": 12.516191,
      "tags": {
        "light_rail": "yes",
        "name": "København Syd",
        "name:da": "København Syd",
        "name:de": "Kopenhagen Süd",
        "name:en": "Copenhagen South",
        "name:fi": "Kööpenhaminan Etelä",
        "name:fr": "Gare du Sud de Copenhague",
        "name:ja": "コペンハーゲン南駅",
        "official_name": "København Syd",
        "old_name": "Ny Ellebjerg",
        "public_transport": "station",
        "railway": "halt",
        "railway:ref": "Nel",
        "short_name": "København S",
        "station": "light_rail",
        "wheelchair": "yes"
      }
    },
    {
      "type": "node",
      "id": 1020077038,
      "lat": 56.1628917,
      "lon": 10.2164287,
      "tags": {
        "light_rail": "yes",
        "local_ref": "1",
        "name": "Østbanetorvet",
        "public_transport": "stop_position",
        "railway": "halt",
        "railway:position": "1.9",
        "ref": "860014801",
        "ref_name": "Østbanetorvet"
      }
    },
    {
      "type": "node",
      "id": 1023040928,
      "lat": 55.6650504,
      "lon": 12.4410201,
      "tags": {
        "light_rail": "yes",
        "name": "Brøndbyøster",
        "public_transport": "station",
        "railway": "halt",
        "railway:ref": "Bøt",
        "station": "light_rail",
        "wikidata": "Q2262519"
      }
    },
    {
      "type": "node",
      "id": 1029779062,
      "lat": 56.0750002,
      "lon": 12.5383162,
      "tags": {
        "name": "Ålsgårde",
        "public_transport": "station",
        "railway": "station",
        "railway:ref": "Aal",
        "wikidata": "Q15280883"
      }
    },
    {
      "type": "node",
      "id": 1029779166,
      "lat": 56.0666162,
      "lon": 12.5540236,
      "tags": {
        "name": "Hellebæk",
        "public_transport": "station",
        "railway": "station",
        "railway:ref": "Hel",
        "wikidata": "Q12316088"
      }
    },
    {
      "type": "node",
      "id": 1029779207,
      "lat": 56.0432857,
      "lon": 12.6023376,
      "tags": {
        "name": "Marienlyst",
        "public_transport": "station",
        "railway": "halt",
        "railway:ref": "Mar",
        "wikidata": "Q12326103"
      }
    },
    {
      "type": "node",
      "id": 1030167773,
      "lat": 56.032885,
      "lon": 12.6131788,
      "tags": {
        "name": "Helsingør",
        "public_transport": "station",
        "railway": "station",
        "railway:ref": "Hg",
        "wikidata": "Q2162602"
      }
    },
    {
      "type": "node",
      "id": 1030169723,
      "lat": 56.0480848,
      "lon": 12.5932509,
      "tags": {
        "name": "Højstrup",
        "public_transport": "station",
        "railway": "station",
        "railway:ref": "Høp",
        "wikidata": "Q12317799"
      }
    },
    {
      "type": "node",
      "id": 1034044245,
      "lat": 55.663094,
      "lon": 12.3987613,
      "tags": {
        "light_rail": "yes",
        "name": "Glostrup",
        "public_transport": "station",
        "railway": "station",
        "railway:ref": "Gl",
        "station": "light_rail",
        "wheelchair": "limited",
        "wikidata": "Q2945351"
      }
    },
    {
      "type": "node",
      "id": 1036553605,
      "lat": 55.6644909,
      "lon": 12.4750154,
      "tags": {
        "alt_name": "Hvidovre Nær",
        "light_rail": "yes",
        "name": "Hvidovre",
        "public_transport": "station",
        "railway": "halt",
        "railway:ref": "Hit",
        "station": "light_rail",
        "wikidata": "Q2395511"
      }
    },
    {
      "type": "node",
      "id": 1036553606,
      "lat": 55.6673952,
      "lon": 12.5040869,
      "tags": {
        "light_rail": "yes",
        "name": "Langgade",
        "public_transport": "station",
        "railway": "halt",
        "railway:ref": "Vat",
        "station": "light_rail",
        "wikidata": "Q2231231"
      }
    },
    {
      "type": "node",
      "id": 1036553613,
      "lat": 55.6524851,
      "lon": 12.302094,
      "tags": {
        "light_rail": "yes",
        "name": "Taastrup",
        "public_transport": "station",
        "railway": "station",
        "railway:ref": "Tå",
        "station": "light_rail",
        "wikidata": "Q1863289"
      }
    },
    {
      "type": "node",
      "id": 1036553616,
      "lat": 55.6581188,
      "lon": 12.3537736,
      "tags": {
        "light_rail": "yes",
        "name": "Albertslund",
        "name:etymology:wikidata": "Q136652149",
        "phone": "+45 43 64 82 25",
        "public_transport": "station",
        "railway": "halt",
        "railway:ref": "Alb",
        "station": "light_rail",
        "toilets:wheelchair": "no",
        "wheelchair": "yes",
        "wheelchair:description": "i Parking. i i Entry via elevator in tunnel under rail. i i Access to shop. n Toilet. 2014 tbasen.dk/rating.",
        "wikidata": "Q2480478"
      }
    },
    {
      "type": "node",
      "id": 1037390750,
      "lat": 55.3801116,
      "lon": 12.2015518,
      "tags": {
        "name": "Grubberholm",
        "public_transport": "station",
        "railway": "station",
        "railway:ref": "Grh",
        "wikidata": "Q12314388"
      }
    },
    {
      "type": "node",
      "id": 1037390772,
      "lat": 55.37242,
      "lon": 12.2155845,
      "tags": {
        "name": "Himlingøje",
        "public_transport": "station",
        "railway": "halt",
        "railway:ref": "Hmø",
        "wikidata": "Q12316772"
      }
    },
    {
      "type": "node",
      "id": 1037390977,
      "lat": 55.4001161,
      "lon": 12.1920964,
      "tags": {
        "name": "Vallø",
        "public_transport": "station",
        "railway": "station",
        "railway:ref": "Vlø",
        "wikidata": "Q12343686"
      }
    },
    {
      "type": "node",
      "id": 1037784653,
      "lat": 55.2421522,
      "lon": 12.1369368,
      "tags": {
        "name": "Faxe Syd",
        "public_transport": "station",
        "railway": "station",
        "railway:ref": "Fxs",
        "wikidata": "Q12310984"
      }
    },
    {
      "type": "node",
      "id": 1037784658,
      "lat": 55.2832781,
      "lon": 12.1427304,
      "tags": {
        "name": "Tokkerup",
        "public_transport": "station",
        "railway": "halt",
        "railway:ref": "Tok",
        "wikidata": "Q12339517"
      }
    },
    {
      "type": "node",
      "id": 1037784661,
      "lat": 55.3070046,
      "lon": 12.1956227,
      "tags": {
        "name": "Karise",
        "operator": "Regionstog",
        "public_transport": "station",
        "railway": "station",
        "railway:ref": "Kri",
        "wikidata": "Q12321359"
      }
    },
    {
      "type": "node",
      "id": 1037784664,
      "lat": 55.3365771,
      "lon": 12.219292,
      "tags": {
        "name": "Lille Linde",
        "public_transport": "station",
        "railway": "halt",
        "railway:ref": "Lli",
        "wikidata": "Q12324768"
      }
    },
    {
      "type": "node",
      "id": 1037850778,
      "lat": 55.3094862,
      "lon": 12.3856747,
      "tags": {
        "name": "Store Heddinge",
        "public_transport": "station",
        "railway": "station",
        "railway:ref": "Sth",
        "wheelchair": "limited",
        "wikidata": "Q12337355"
      }
    },
    {
      "type": "node",
      "id": 1037850995,
      "lat": 55.3524557,
      "lon": 12.279692,
      "tags": {
        "name": "Varpelev",
        "public_transport": "station",
        "railway": "halt",
        "railway:ref": "Vap",
        "wikidata": "Q12340588"
      }
    },
    {
      "type": "node",
      "id": 1037851022,
      "lat": 55.34598,
      "lon": 12.3257058,
      "tags": {
        "name": "Klippinge",
        "public_transport": "station",
        "railway": "station",
        "railway:ref": "Klp",
        "wikidata": "Q12322175"
      }
    },
    {
      "type": "node",
      "id": 1040169361,
      "lat": 55.6780325,
      "lon": 12.5036407,
      "tags": {
        "light_rail": "yes",
        "name": "Peter Bangs Vej",
        "public_transport": "station",
        "railway": "halt",
        "railway:ref": "Pbt",
        "station": "light_rail",
        "wikidata": "Q2392932"
      }
    },
    {
      "type": "node",
      "id": 1057447783,
      "lat": 55.6283839,
      "lon": 12.5802183,
      "tags": {
        "name": "Ørestad",
        "name:sv": "Örestad",
        "public_transport": "station",
        "railway": "halt",
        "railway:ref": "Øre",
        "train": "yes",
        "wheelchair": "yes",
        "wikidata": "Q616388",
        "wikipedia": "en:Ørestad railway station"
      }
    },
    {
      "type": "node",
      "id": 1057448125,
      "lat": 55.6297987,
      "lon": 12.601581,
      "tags": {
        "name": "Tårnby",
        "public_transport": "station",
        "railway": "halt",
        "railway:ref": "Tåt",
        "wheelchair": "yes",
        "wikidata": "Q1924055"
      }
    },
    {
      "type": "node",
      "id": 1071641459,
      "lat": 55.7246625,
      "lon": 12.3857045,
      "tags": {
        "light_rail": "yes",
        "name": "Malmparken",
        "public_transport": "station",
        "railway": "halt",
        "railway:ref": "Mpt",
        "station": "light_rail",
        "wikidata": "Q6744384"
      }
    },
    {
      "type": "node",
      "id": 1079421269,
      "lat": 57.5593397,
      "lon": 9.9725283,
      "tags": {
        "name": "Horne",
        "public_transport": "station",
        "railway": "halt",
        "railway:ref": "Hon",
        "wikidata": "Q12317223"
      }
    },
    {
      "type": "node",
      "id": 1079756370,
      "lat": 57.4545668,
      "lon": 9.9760412,
      "tags": {
        "name": "Kvægtorvet",
        "public_transport": "station",
        "railway": "halt",
        "railway:ref": "Kt",
        "wikidata": "Q12323258"
      }
    },
    {
      "type": "node",
      "id": 1089058393,
      "lat": 55.1587111,
      "lon": 8.7715973,
      "tags": {
        "name": "Skærbæk",
        "public_transport": "station",
        "railway": "station",
        "railway:ref": "Æk",
        "wheelchair": "yes",
        "wikidata": "Q12335950"
      }
    },
    {
      "type": "node",
      "id": 1106552903,
      "lat": 56.1225918,
      "lon": 12.3091701,
      "tags": {
        "name": "Gilleleje Øst",
        "public_transport": "station",
        "railway": "halt",
        "railway:ref": "Glø",
        "wikidata": "Q12313889"
      }
    },
    {
      "type": "node",
      "id": 1121201376,
      "lat": 56.4119465,
      "lon": 8.308133,
      "tags": {
        "name": "Bækmarksbro",
        "public_transport": "station",
        "railway": "station",
        "railway:ref": "Bkm",
        "wikidata": "Q12304780"
      }
    },
    {
      "type": "node",
      "id": 1133072386,
      "lat": 57.5720644,
      "lon": 9.9775439,
      "tags": {
        "name": "Emmersbæk",
        "public_transport": "station",
        "railway": "halt",
        "railway:ref": "Emm",
        "wikidata": "Q115412798"
      }
    },
    {
      "type": "node",
      "id": 1133073715,
      "lat": 57.5852735,
      "lon": 9.9762793,
      "tags": {
        "name": "Lilleheden",
        "public_transport": "station",
        "railway": "halt",
        "railway:ref": "Lhe",
        "wikidata": "Q12324473"
      }
    },
    {
      "type": "node",
      "id": 1137809314,
      "lat": 55.3523853,
      "lon": 11.696387,
      "tags": {
        "name": "Glumsø",
        "public_transport": "station",
        "railway": "station",
        "railway:ref": "Gz",
        "wikidata": "Q12314061"
      }
    },
    {
      "type": "node",
      "id": 1140812855,
      "lat": 56.5210031,
      "lon": 8.223046,
      "tags": {
        "name": "Bonnet",
        "public_transport": "station",
        "railway": "station",
        "railway:ref": "Bnt",
        "wikidata": "Q12304101"
      }
    },
    {
      "type": "node",
      "id": 1170950437,
      "lat": 55.7171893,
      "lon": 8.3445313,
      "tags": {
        "name": "Outrup",
        "public_transport": "station",
        "railway": "station",
        "railway:ref": "Ovt",
        "wikidata": "Q12330643"
      }
    },
    {
      "type": "node",
      "id": 1271230723,
      "lat": 55.6834487,
      "lon": 12.5131859,
      "tags": {
        "name": "Lindevang",
        "network": "Metro",
        "network:wikidata": "Q212741",
        "public_transport": "station",
        "railway": "station",
        "station": "subway",
        "subway": "yes",
        "wheelchair": "yes",
        "wikidata": "Q801103"
      }
    },
    {
      "type": "node",
      "id": 1307095875,
      "lat": 55.2311888,
      "lon": 11.7670814,
      "tags": {
        "name": "Næstved",
        "public_transport": "station",
        "railway": "station",
        "railway:ref": "Næ",
        "wikidata": "Q2193214"
      }
    },
    {
      "type": "node",
      "id": 1313852656,
      "lat": 56.3741589,
      "lon": 9.6584089,
      "tags": {
        "name": "Bjerringbro",
        "public_transport": "station",
        "railway": "station",
        "railway:ref": "Bj",
        "wikidata": "Q12303702"
      }
    },
    {
      "type": "node",
      "id": 1361893313,
      "lat": 57.2706752,
      "lon": 9.6506953,
      "tags": {
        "name": "Indgangen",
        "railway": "halt"
      }
    },
    {
      "type": "node",
      "id": 1371366151,
      "lat": 56.5690639,
      "lon": 8.1602768,
      "tags": {
        "name": "Strande",
        "public_transport": "station",
        "railway": "station",
        "railway:ref": "Sta",
        "wikidata": "Q12337427"
      }
    },
    {
      "type": "node",
      "id": 1432018967,
      "lat": 55.3619633,
      "lon": 10.2719151,
      "tags": {
        "name": "Holmstrup",
        "public_transport": "station",
        "railway": "station",
        "railway:ref": "Hp",
        "wikidata": "Q9293367"
      }
    },
    {
      "type": "node",
      "id": 1432120725,
      "lat": 55.3732621,
      "lon": 10.1058038,
      "tags": {
        "name": "Bred",
        "public_transport": "station",
        "railway": "halt",
        "railway:ref": "Bd",
        "wikidata": "Q12304298"
      }
    },
    {
      "type": "node",
      "id": 1432120776,
      "lat": 55.3495891,
      "lon": 10.1828194,
      "tags": {
        "name": "Tommerup",
        "public_transport": "station",
        "railway": "station",
        "railway:ref": "Tp",
        "wikidata": "Q673732"
      }
    },
    {
      "type": "node",
      "id": 1432191815,
      "lat": 55.428674,
      "lon": 9.9300034,
      "tags": {
        "name": "Ejby",
        "public_transport": "station",
        "railway": "station",
        "railway:ref": "Eb",
        "wikidata": "Q12309587"
      }
    },
    {
      "type": "node",
      "id": 1433071586,
      "lat": 55.4279941,
      "lon": 9.2864145,
      "tags": {
        "name": "Vamdrup",
        "public_transport": "station",
        "railway": "station",
        "railway:ref": "Vm",
        "railway:ref:DB": "XDVA",
        "wikidata": "Q1823112"
      }
    },
    {
      "type": "node",
      "id": 1433117250,
      "lat": 55.4905542,
      "lon": 9.4814404,
      "tags": {
        "name": "Kolding",
        "public_transport": "station",
        "railway": "station",
        "railway:ref": "Kd",
        "railway:ref:DB": "XDKO",
        "wheelchair": "yes",
        "wheelchair:description": "Tel.: 0045 70 13 14 15",
        "wikidata": "Q3283910"
      }
    },
    {
      "type": "node",
      "id": 1459237889,
      "lat": 56.2630315,
      "lon": 10.0595198,
      "tags": {
        "name": "Hinnerup",
        "public_transport": "station",
        "railway": "station",
        "railway:ref": "Hn",
        "wheelchair": "yes",
        "wikidata": "Q12316812"
      }
    },
    {
      "type": "node",
      "id": 1459335447,
      "lat": 56.6431381,
      "lon": 9.7823381,
      "tags": {
        "name": "Hobro",
        "public_transport": "station",
        "railway": "station",
        "railway:ref": "Hb",
        "wheelchair": "yes",
        "wikidata": "Q2319139"
      }
    },
    {
      "type": "node",
      "id": 1459474926,
      "lat": 56.9720799,
      "lon": 9.8561756,
      "tags": {
        "alt_name": "Svenstrup Jylland",
        "name": "Svenstrup",
        "network": "Nordjyllands Trafikselskab",
        "network:wikidata": "Q3246599",
        "public_transport": "station",
        "railway": "halt",
        "railway:ref": "Sn",
        "wikidata": "Q2534443"
      }
    },
    {
      "type": "node",
      "id": 1507800786,
      "lat": 55.5385265,
      "lon": 11.2343868,
      "tags": {
        "name": "Gørlev",
        "note": "Veteran railway. Used during summertime",
        "railway": "halt",
        "usage": "tourism"
      }
    },
    {
      "type": "node",
      "id": 1529559156,
      "lat": 57.3547468,
      "lon": 9.9421734,
      "tags": {
        "name": "Vrå",
        "public_transport": "station",
        "railway": "station",
        "railway:ref": "Vr",
        "wikidata": "Q12344087"
      }
    },
    {
      "type": "node",
      "id": 1529956163,
      "lat": 56.6567473,
      "lon": 8.1947766,
      "tags": {
        "name": "Rønland",
        "public_transport": "station",
        "railway": "station",
        "railway:ref": "Røn",
        "wikidata": "Q12334186"
      }
    },
    {
      "type": "node",
      "id": 1577821249,
      "lat": 54.9190195,
      "lon": 9.5939371,
      "tags": {
        "name": "Gråsten",
        "public_transport": "station",
        "railway": "station",
        "railway:ref": "Gst",
        "wikidata": "Q12314436"
      }
    },
    {
      "type": "node",
      "id": 1619024514,
      "lat": 55.7167199,
      "lon": 8.5983293,
      "tags": {
        "name": "Tistrup",
        "public_transport": "station",
        "railway": "station",
        "railway:ref": "Tr",
        "wikidata": "Q12339451"
      }
    },
    {
      "type": "node",
      "id": 1621979373,
      "lat": 55.1102983,
      "lon": 11.8694404,
      "tags": {
        "name": "Lundby",
        "public_transport": "station",
        "railway": "station",
        "railway:ref": "Lu",
        "wikidata": "Q12325108"
      }
    },
    {
      "type": "node",
      "id": 1628494972,
      "lat": 55.5684379,
      "lon": 9.739523,
      "tags": {
        "name": "Fredericia",
        "public_transport": "station",
        "railway": "station",
        "railway:ref": "Fa",
        "railway:ref:DB": "XDF",
        "train": "yes",
        "wheelchair": "yes",
        "wikidata": "Q2883173"
      }
    },
    {
      "type": "node",
      "id": 1655765253,
      "lat": 57.5917049,
      "lon": 9.9634184,
      "tags": {
        "name": "Hirtshals",
        "operator": "Nordjyske Jernbaner",
        "public_transport": "station",
        "railway": "station",
        "railway:ref": "Hhs",
        "train": "yes",
        "wikidata": "Q2126022"
      }
    },
    {
      "type": "node",
      "id": 1733449578,
      "lat": 55.9270287,
      "lon": 12.311414,
      "tags": {
        "light_rail": "yes",
        "name": "Hillerød",
        "operator": "DSB S-tog",
        "public_transport": "station",
        "railway": "station",
        "railway:ref": "Hi",
        "station": "light_rail",
        "wheelchair": "yes",
        "wikidata": "Q2347051"
      }
    },
    {
      "type": "node",
      "id": 1742785276,
      "lat": 55.6309113,
      "lon": 12.6492236,
      "tags": {
        "alt_name": "Københavns Lufthavn, Kastup",
        "alt_name:en": "Copenhagen Airport, Kastrup",
        "check_date:alt_name": "2020-09-15",
        "check_date:name": "2020-09-15",
        "name": "Københavns Lufthavn, Kastrup",
        "name:da": "Lufthavnen (Metro)",
        "name:en": "The Airport",
        "network": "Metro",
        "network:wikidata": "Q212741",
        "public_transport": "station",
        "railway": "station",
        "station": "subway",
        "subway": "yes",
        "wheelchair": "yes",
        "wikidata": "Q10591971"
      }
    },
    {
      "type": "node",
      "id": 1748905722,
      "lat": 55.6120504,
      "lon": 8.4721676,
      "tags": {
        "name": "Varde Kaserne",
        "public_transport": "station",
        "railway": "halt",
        "railway:ref": "Vka",
        "wikidata": "Q12340575"
      }
    },
    {
      "type": "node",
      "id": 1797765147,
      "lat": 55.9276718,
      "lon": 12.3113945,
      "tags": {
        "name": "Hillerød",
        "operator": "Nordsjællands Lokalbaner",
        "public_transport": "station",
        "railway": "station",
        "railway:ref": "Hi",
        "train": "yes",
        "wheelchair": "yes"
      }
    },
    {
      "type": "node",
      "id": 1809766009,
      "lat": 55.4803997,
      "lon": 9.3040943,
      "tags": {
        "name": "Lunderskov",
        "public_transport": "station",
        "railway": "station",
        "railway:ref": "Lk",
        "railway:ref:DB": "XDLU",
        "wheelchair": "no",
        "wikidata": "Q2571198"
      }
    },
    {
      "type": "node",
      "id": 1922445342,
      "lat": 55.056956,
      "lon": 8.8231512,
      "tags": {
        "name": "Bredebro",
        "public_transport": "station",
        "railway": "station",
        "railway:ref": "Bw",
        "wikidata": "Q12304305",
        "wikipedia": "da:Bredebro Station"
      }
    },
    {
      "type": "node",
      "id": 1922500176,
      "lat": 56.3677389,
      "lon": 8.4279829,
      "tags": {
        "name": "Bur",
        "public_transport": "station",
        "railway": "halt",
        "railway:ref": "Bu",
        "wikidata": "Q12304647"
      }
    },
    {
      "type": "node",
      "id": 1922776145,
      "lat": 55.7652974,
      "lon": 8.6115365,
      "tags": {
        "name": "Gårde",
        "public_transport": "station",
        "railway": "halt",
        "railway:ref": "Gå",
        "wikidata": "Q12314768"
      }
    },
    {
      "type": "node",
      "id": 1924932181,
      "lat": 56.1440538,
      "lon": 8.2867545,
      "tags": {
        "name": "Hee",
        "public_transport": "station",
        "railway": "halt",
        "railway:ref": "He",
        "wikidata": "Q12315917"
      }
    },
    {
      "type": "node",
      "id": 1927892658,
      "lat": 56.4388053,
      "lon": 8.6398964,
      "tags": {
        "name": "Hjerm",
        "public_transport": "station",
        "railway": "station",
        "railway:ref": "Hm",
        "wikidata": "Q12316893"
      }
    },
    {
      "type": "node",
      "id": 1927895372,
      "lat": 56.2446348,
      "lon": 10.2685378,
      "tags": {
        "light_rail": "yes",
        "name": "Hjortshøj",
        "public_transport": "station",
        "railway": "halt",
        "railway:ref": "Ht",
        "start_date": "1877-12-01",
        "station": "light_rail",
        "wikidata": "Q12316933",
        "wikipedia": "da:Hjortshøj Station"
      }
    },
    {
      "type": "node",
      "id": 1948138915,
      "lat": 55.6654375,
      "lon": 8.5769413,
      "tags": {
        "name": "Sig",
        "public_transport": "station",
        "railway": "halt",
        "railway:ref": "Is",
        "wikidata": "Q12335206"
      }
    },
    {
      "type": "node",
      "id": 1949155247,
      "lat": 56.19533,
      "lon": 8.3057895,
      "tags": {
        "name": "Tim",
        "public_transport": "station",
        "railway": "halt",
        "railway:ref": "Tm",
        "wikidata": "Q15280896"
      }
    },
    {
      "type": "node",
      "id": 1949241619,
      "lat": 55.3734096,
      "lon": 12.0760275,
      "tags": {
        "name": "Tureby",
        "public_transport": "station",
        "railway": "station",
        "railway:ref": "Th",
        "wikidata": "Q12339881"
      }
    },
    {
      "type": "node",
      "id": 1949257668,
      "lat": 56.3218903,
      "lon": 8.7084876,
      "tags": {
        "name": "Tvis",
        "railway": "station",
        "wikidata": "Q12339923",
        "wikipedia": "da:Tvis Station"
      }
    },
    {
      "type": "node",
      "id": 1950583944,
      "lat": 56.3954985,
      "lon": 9.7930525,
      "tags": {
        "name": "Ulstrup",
        "public_transport": "station",
        "railway": "station",
        "railway:ref": "Up",
        "wikidata": "Q12340217"
      }
    },
    {
      "type": "node",
      "id": 1950595631,
      "lat": 55.6311845,
      "lon": 8.5001359,
      "tags": {
        "name": "Varde Nord",
        "public_transport": "station",
        "railway": "halt",
        "railway:ref": "Vno",
        "wikidata": "Q12340578"
      }
    },
    {
      "type": "node",
      "id": 1950651827,
      "lat": 56.3438706,
      "lon": 8.3454452,
      "tags": {
        "name": "Vemb",
        "public_transport": "station",
        "railway": "station",
        "railway:ref": "Vem",
        "wheelchair": "yes",
        "wikidata": "Q1934441"
      }
    },
    {
      "type": "node",
      "id": 1996631526,
      "lat": 57.2697971,
      "lon": 9.6541949,
      "tags": {
        "name": "Fårup Grillen",
        "railway": "halt"
      }
    },
    {
      "type": "node",
      "id": 2042342677,
      "lat": 55.619371,
      "lon": 12.5755841,
      "tags": {
        "layer": "1",
        "name": "Vestamager",
        "network": "Metro",
        "network:wikidata": "Q212741",
        "public_transport": "station",
        "railway": "station",
        "station": "subway",
        "subway": "yes",
        "wheelchair": "yes",
        "wikidata": "Q801562"
      }
    },
    {
      "type": "node",
      "id": 2047469538,
      "lat": 57.5545542,
      "lon": 10.4083168,
      "tags": {
        "alt_name": "Napstjært",
        "name": "Napstjert",
        "public_transport": "station",
        "railway": "halt",
        "railway:ref": "Nap",
        "wikidata": "Q6965144"
      }
    },
    {
      "type": "node",
      "id": 2089115303,
      "lat": 55.6290128,
      "lon": 12.579355,
      "tags": {
        "name": "Ørestad",
        "network": "Metro",
        "network:wikidata": "Q212741",
        "public_transport": "station",
        "railway": "station",
        "station": "subway",
        "subway": "yes",
        "wheelchair": "yes",
        "wikidata": "Q124393834"
      }
    },
    {
      "type": "node",
      "id": 2093979759,
      "lat": 55.7628994,
      "lon": 12.5835616,
      "tags": {
        "light_rail": "yes",
        "name": "Ordrup",
        "public_transport": "station",
        "railway": "halt",
        "railway:ref": "Op",
        "station": "light_rail",
        "wheelchair": "yes",
        "wikidata": "Q7100930"
      }
    },
    {
      "type": "node",
      "id": 2103252551,
      "lat": 55.9032571,
      "lon": 12.5024245,
      "tags": {
        "name": "Kokkedal",
        "public_transport": "station",
        "railway": "halt",
        "railway:ref": "Ok",
        "wikidata": "Q12322428"
      }
    },
    {
      "type": "node",
      "id": 2125774244,
      "lat": 55.9854238,
      "lon": 11.9427382,
      "tags": {
        "name": "Dyssekilde",
        "platforms": "2",
        "public_transport": "station",
        "railway": "station",
        "railway:ref": "Dsk",
        "wheelchair": "yes",
        "wikidata": "Q12309132"
      }
    },
    {
      "type": "node",
      "id": 2125797516,
      "lat": 56.0599174,
      "lon": 12.0972072,
      "tags": {
        "name": "Godhavn",
        "public_transport": "station",
        "railway": "halt",
        "railway:ref": "Ghg",
        "wikidata": "Q12314083"
      }
    },
    {
      "type": "node",
      "id": 2175654840,
      "lat": 57.7246845,
      "lon": 10.5634573,
      "tags": {
        "name": "Frederikshavnsvej",
        "public_transport": "station",
        "railway": "halt",
        "railway:ref": "Fhv"
      }
    },
    {
      "type": "node",
      "id": 2185732614,
      "lat": 57.5320982,
      "lon": 10.4171808,
      "tags": {
        "name": "Jerup",
        "public_transport": "station",
        "railway": "station",
        "railway:ref": "Jeu",
        "wikidata": "Q12319600"
      }
    },
    {
      "type": "node",
      "id": 2191424213,
      "lat": 57.4899627,
      "lon": 10.49005,
      "tags": {
        "name": "Strandby",
        "public_transport": "station",
        "railway": "station",
        "railway:ref": "Stb",
        "wikidata": "Q7621261"
      }
    },
    {
      "type": "node",
      "id": 2191431982,
      "lat": 57.5047875,
      "lon": 10.4453825,
      "tags": {
        "name": "Rimmen",
        "network": "Nordjyllands Trafikselskab",
        "network:wikidata": "Q3246599",
        "public_transport": "station",
        "railway": "halt",
        "railway:ref": "Rim",
        "wikidata": "Q12333500"
      }
    },
    {
      "type": "node",
      "id": 2191482440,
      "lat": 57.5924007,
      "lon": 10.4082686,
      "tags": {
        "name": "Ålbæk",
        "public_transport": "station",
        "railway": "station",
        "railway:ref": "Ålb",
        "wikidata": "Q12300305"
      }
    },